[
  {
    "lat": 48.85837,
    "lon": 2.294481,
    "name": "Eiffel Tower",
    "location": "Paris, France",
    "category": "tower"
  },
  {
    "lat": 40.689247,
    "lon": -74.044502,
    "name": "Statue of Liberty",
    "location": "New York, USA",
    "category": "monument"
  },
  {
    "lat": 51.500729,
    "lon": -0.124625,
    "name": "Big Ben",
    "location": "London, UK",
    "category": "clock tower"
  },
  {
    "lat": 41.890251,
    "lon": 12.492373,
    "name": "Colosseum",
    "location": "Rome, Italy",
    "category": "ancient structure"
  },
  {
    "lat": 27.175015,
    "lon": 78.042155,
    "name": "Taj Mahal",
    "location": "Agra, India",
    "category": "mausoleum"
  },
  {
    "lat": 40.431908,
    "lon": 116.570374,
    "name": "Great Wall of China",
    "location": "Beijing, China",
    "category": "ancient fortification"
  },
  {
    "lat": -13.163141,
    "lon": -72.545872,
    "name": "Machu Picchu",
    "location": "Cusco Region, Peru",
    "category": "ancient ruins"
  },
  {
    "lat": 37.971522,
    "lon": 23.72672,
    "name": "Acropolis of Athens",
    "location": "Athens, Greece",
    "category": "ancient ruins"
  },
  {
    "lat": -22.951916,
    "lon": -43.210487,
    "name": "Christ the Redeemer",
    "location": "Rio de Janeiro, Brazil",
    "category": "statue"
  },
  {
    "lat": 29.979235,
    "lon": 31.134202,
    "name": "Great Pyramid of Giza",
    "location": "Giza, Egypt",
    "category": "ancient structure"
  },
  {
    "lat": 35.689487,
    "lon": 139.691706,
    "name": "Shibuya Crossing",
    "location": "Tokyo, Japan",
    "category": "city square"
  },
  {
    "lat": 48.852968,
    "lon": 2.349902,
    "name": "Notre-Dame Cathedral",
    "location": "Paris, France",
    "category": "cathedral"
  },
  {
    "lat": 51.178882,
    "lon": -1.826215,
    "name": "Stonehenge",
    "location": "Wiltshire, UK",
    "category": "ancient monument"
  },
  {
    "lat": 43.722952,
    "lon": 10.396597,
    "name": "Leaning Tower of Pisa",
    "location": "Pisa, Italy",
    "category": "tower"
  },
  {
    "lat": 55.752121,
    "lon": 37.617664,
    "name": "Red Square",
    "location": "Moscow, Russia",
    "category": "city square"
  },
  {
    "lat": 1.283333,
    "lon": 103.833333,
    "name": "Marina Bay Sands",
    "location": "Singapore",
    "category": "hotel"
  },
  {
    "lat": 25.197525,
    "lon": 55.274288,
    "name": "Burj Khalifa",
    "location": "Dubai, UAE",
    "category": "skyscraper"
  },
  {
    "lat": -33.856784,
    "lon": 151.215297,
    "name": "Sydney Opera House",
    "location": "Sydney, Australia",
    "category": "opera house"
  },
  {
    "lat": 36.455556,
    "lon": 138.633333,
    "name": "Mount Fuji",
    "location": "Honshu, Japan",
    "category": "volcano"
  },
  {
    "lat": 36.100553,
    "lon": -112.113199,
    "name": "Grand Canyon",
    "location": "Arizona, USA",
    "category": "natural wonder"
  },
  {
    "lat": 40.748817,
    "lon": -73.985428,
    "name": "Empire State Building",
    "location": "New York, USA",
    "category": "skyscraper"
  },
  {
    "lat": 48.873792,
    "lon": 2.295028,
    "name": "Arc de Triomphe",
    "location": "Paris, France",
    "category": "triumphal arch"
  },
  {
    "lat": 41.403629,
    "lon": 2.174356,
    "name": "Sagrada Familia",
    "location": "Barcelona, Spain",
    "category": "cathedral"
  },
  {
    "lat": 37.819929,
    "lon": -122.478255,
    "name": "Golden Gate Bridge",
    "location": "San Francisco, USA",
    "category": "bridge"
  },
  {
    "lat": 30.328611,
    "lon": 35.444444,
    "name": "Petra",
    "location": "Ma'an, Jordan",
    "category": "ancient ruins"
  }
]